name,Famous_for,Address,Hear_the_story,longitude,latitude,DIID
"CHURCHILL, Lord Randolph (1849-1895)","British statesman, father of Sir Winston Churchill","2 Connaught Place, W2",,-0.162108,51.513521,Park Lane
"DISRAELI, Benjamin - Earl of Beaconsfield (1804-1881)",British politician of the Conservative Party who twice served as Prime Minister of the United Kingdom.,"19 Curzon Street, W1",,-0.150525,51.506364,Park Lane
"MONTEFIORE, Sir Moses (1784-1885);",Philanthropist and Jewish Leader;,"99 Park Lane, W1",,-0.156758,51.510458,Park Lane
"NIGHTINGALE, Florence (1820-1910)","English social reformer, statistician and the founder of modern nursing.","10 South Street, W1",,-0.152891,51.50813,Park Lane
"PALMERSTON, Lord (1784-1865)",Prime Minister and Foreign Secretary,"Naval and Military Club, 94 Piccadilly, W1",,-0.145241,51.505573,Park Lane
"PEEL, Sir Robert (1750-1830) & his son Sir Robert PEEL (1788-1850)","Sir Robert Peel (Sr) was a Manufacturer and Reformer. 
His son was Prime Minister; Founder of the Metropolitan Police","16 Upper Grosvenor Street, W1",,-0.154708,51.510297,Park Lane
"RAGLAN, Lord Fitzroy Somerset (1788-1855)","British Army officer who served in the Peninsular War and the Hundred Days, latterly as military secretary to the Duke of Wellington.He became commander of the British troops sent to the Crimea in 1854.","5 Stanhope Gate; Hyde Park, W1",,-0.151456,51.506639,Park Lane
